,best_match_score,__id_left,__id_right,Course,City,State,Country,Year,id,name,address,city,state,country,latitude,longitude
0,0.47944043931980024,0_left,5671_right,Otter Creek,Columbus,Indiana,US,,5672,Otter Creek Golf Course - North/West,  11522 E 50 N,Columbus,Indiana,US,39.208404,-85.918828
6,0.8276152600952339,1_left,2531_right,Sterling Farms,Stamford,Connecticut,US,,2532,Sterling Farms Golf Course,  1349 Newfield Ave,Stamford,Connecticut,US,41.10618675,-73.52710632996447
7,0.5718619644379982,2_left,2474_right,Oak Hills,Norwalk,Connecticut,US,,2475,Oak Hills Park Golf Course,  165 Fillow St,Norwalk,Connecticut,US,41.1140234,-73.44439209418469
8,0.4768779392460839,3_left,11429_right,Centennial,Carmel,New York,US,,11430,Centennial Golf Club - Lakes/Meadows,  185 John Simpson Rd,Carmel,New York,US,41.4244204,-73.65097018048655
14,0.7055904353425854,4_left,2452_right,Great River,Milford,Connecticut,US,,2453,Great River Golf Club,  130 CORAM LN,Milford,Connecticut,US,41.27485095,-73.08301081409091
15,0.7444982777010705,5_left,8010_right,Chequessett,Wellfleet,Massachusetts,US,,8011,Chequessett Yacht & Country Club,  680 Chequessett Neck Rd,Wellfleet,Massachusetts,US,41.9306751,-70.05468344684678
16,0.9680464327391969,6_left,7866_right,Highland Links,North Truro,Massachusetts,US,,7867,Highland Links,  10 Highland Light Rd,North Truro,Massachusetts,US,42.038039,-70.06318
17,0.7984966462924878,7_left,2385_right,Richter Park,Danbury,Connecticut,US,,2386,Richter Park Golf Course,  100 Aunt Hack Rd,Danbury,Connecticut,US,41.41259425,-73.52030190830902
18,0.037685352181502464,8_left,10626_right,Rio Secco,Las Vegas,Nevada,US,,10627,The Summit Club,  Summit Club Drive,Las Vegas,Nevada,US,36.10411,-115.33627
57,0.3838421942461189,9_left,2529_right,Brennan,Stamford,Connecticut,US,,2530,E. Gaynor Brennan Golf Course,  451 Stillwater Rd,Stamford,Connecticut,US,41.0603066,-73.55687974676745
58,0.1987443788449905,10_left,2470_right,Lake of Isles,New London,Connecticut,US,,2471,Lake of Isles - South Course,  1 CLUBHOUSE DR,North Stonington,Connecticut,US,41.4829856,-71.951742
62,0.7686348113848501,11_left,8083_right,Stonebridge,Ann Arbor,Michigan,US,,8084,Stonebridge Golf Club,  1825 CLUBHOUSE DR,Ann Arbor,Michigan,US,42.213993900000006,-83.76883879957293
63,0.5226649835222479,12_left,10900_right,Seaview,Galloway,New Jersey,US,,10901,Stockton Seaview Hotel & Golf Club - Bay,  401 S New York Rd,Galloway Township,New Jersey,US,39.449543,-74.471728
65,0.7641830412691258,13_left,2454_right,Whitney Farms,Monroe,Connecticut,US,,2455,Whitney Farms Golf Club,  175 Shelton Rd,Monroe,Connecticut,US,41.33878205,-73.19634177591595
66,0.717259703903841,14_left,2543_right,Tashua Knolls,Trumbull,Connecticut,US,,2544,Tashua Knolls Golf Club - Regulation,  40 Tashua Knolls Ln,Trumbull Twn,Connecticut,US,41.288853,-73.249528
68,0.74418712118627,15_left,2482_right,Grassy Hill,Orange,Connecticut,US,,2483,Grassy Hill Country Club,  441 Clark Ln,Orange,Connecticut,US,41.2659281,-73.04739673529753
69,0.23424735547989384,16_left,27609_right,New Course,St. Andrews,Scotland,UK,,27610,St Andrews Links - The New Course,  Pilmour House,St Andrews,Fife,UK,56.3576,-2.8178
70,1.0404800822025584,17_left,2417_right,Greenwich Country Club,Greenwich,Connecticut,US,,2418,Greenwich Country Club,  19 Doubling Rd,Greenwich,Connecticut,US,41.05440735,-73.61092039819584
74,0.32258793640850353,18_left,10617_right,Revere Golf Club,Las Vegas,Nevada,US,,10618,Royal Links Golf Club,  5995 E. Vegas Valley Dr.,Las Vegas,Nevada,US,36.132064,-115.047236
91,0.3017698228501387,19_left,11593_right,Kissena Park,New York,New York,US,,11594,Kissena Park Golf Course,  165-14 Booth Memorial Ave,Flushing,New York,US,40.744764,-73.798119
92,0.5646589329195086,20_left,220_right,Grand National - Lake Course,Opelika,Alabama,US,,221,RTJ Golf Trail at Grand National - Lake,  3000 Robert Trent Jones Trail,Opelika,Alabama,US,32.6803815,-85.4223927325281
144,0.5716644413010398,21_left,221_right,Grand National - Links Course,Opelika,Alabama,US,,222,RTJ Golf Trail at Grand National - Links,  3000 Robert Trent Jones Trail,Opelika,Alabama,US,32.6803815,-85.4223927325281
196,0.7298642895955728,22_left,253_right,Capitol Hill - Senator Course,Prattville,Alabama,US,,254,RTJ Golf Trail at Capitol Hill - Senator,  2600 Constitution Ave,Prattville,Alabama,US,32.4475,-86.3991
248,0.06860266032774989,23_left,155_right,Ross Bridge,Birmingham,Alabama,US,,156,RTJ Golf Trail at Ross Bridge,  4000 Grand Ave,Hoover,Alabama,US,33.39059555,-86.87922541615231
302,0.5787458275631974,24_left,47_right,Oxmoor Valley - Ridge Course,Birmingham,Alabama,US,,48,RTJ Golf Trail at Oxmoor Valley - Ridge,  100 SUNBELT PKWY,Birmingham,Alabama,US,33.4167068,-86.87242317650268
354,0.5027140671808475,25_left,198_right,Magnolia Grove,Mobile,Alabama,US,,199,RTJ Golf Trail at Magnolia Grove - Falls,  7001 MAGNOLIA GROVE PKY,Mobile,Alabama,US,30.740501,-88.20578
357,0.2575457648566573,26_left,12128_right,La Tourette,New York,New York,US,,12129,La Tourette Golf Course,  1001 Richmond Hill Rd,Staten Island,New York,US,40.57317299758045,-74.1464934235785
358,0.3439220853662762,27_left,11396_right,Split Rock,New York,New York,US,,11397,Split Rock Golf Course,  870 Shore Rd,Bronx,New York,US,40.87273312033569,-73.80925958350291
359,0.15980134701165996,28_left,10626_right,Cascata,Las Vegas,Nevada,US,,10627,The Summit Club,  Summit Club Drive,Las Vegas,Nevada,US,36.10411,-115.33627
398,0.5692341648112755,29_left,3681_right,Sawgrass,Ponte Vedra,Florida,US,,3682,Sawgrass Country Club - South/South,  10034 Golf Club Drive,Ponte Vedra Beach,Florida,US,30.188582,-81.369191
404,-0.1495336021904565,30_left,23937_right,El Manglar,Cancun,,MX,,23938,El Tinto Golf Course,"  Carr. Cancun, Tulum Kim. 338 Lote I-02 Sm. 46",Cancun,Quintana Roo,MX,21.144748,-86.907089
464,0.29025729276495976,31_left,4707_right,Wailea Old Blue,Maui,Hawaii,US,,4708,Wailea Golf Club - Blue,  100 Wailea Ike Drive,Wailea,Hawaii,US,20.6865832,-156.4378959
465,0.2754402164556073,32_left,4680_right,Poipu Bay,Kauai,Hawaii,US,,4681,Poipu Bay Resort Golf Course,  2250 Ainako Street,Koloa,Hawaii,US,21.877468,-159.436124
466,0.08568333475244198,33_left,22708_right,Club de Golf de I'lle de Montreal,Montreal,Quebec,CA,,22709,Club de Golf de L'ile de Montr=C3=A9al - I'lrlande,  3700 rue Damien-Gauthier,Montreal,Quebec,CA,45.6855475,-73.51082
467,1.0135805340406685,34_left,11983_right,Pound Ridge,Pound Ridge,New York,US,,11984,Pound Ridge Golf Club,  18 High Ridge Road,Pound Ridge,New York,US,41.1771293,-73.5655988
468,0.7293733661686731,35_left,3318_right,Normandy Shores,Miami,Florida,US,,3319,Normandy Shores Golf Course,  2401 Biarritz Dr,Miami Beach,Florida,US,25.85639125,-80.14441060672982
469,0.6396595566998938,36_left,10195_right,Cottonwood Hills,Bozeman,Montana,US,,10196,Cottonwood Hills Golf Course - Executive,  8955 River Rd,Bozeman,Montana,US,45.675638,-111.21418
471,0.8042162709018051,37_left,10638_right,Wolf Creek,Mesquite,Nevada,US,,10639,Wolf Creek Golf Course,  403 Paradise Parkway,Mesquite,Nevada,US,36.83687785,-114.05920265671853
472,0.4944500385489291,38_left,11397_right,Trump Ferry Point,New York,New York,US,,11398,Trump Golf Links Ferry Point,  500 Hutchinson River Parkway,Bronx,New York,US,40.8121,-73.8329
473,0.29573113424997366,39_left,11395_right,Pelham Bay,New York,New York,US,,11396,Pelham Bay Golf Course,  870 Shore Rd,Bronx,New York,US,40.87273312033569,-73.80925958350291
474,1.0157711895962744,40_left,12073_right,Saxon Woods,Scarsdale,New York,US,,12074,Saxon Woods Golf Course,  315 MAMARONECK RD,Scarsdale,New York,US,40.97859273043415,-73.76125506842997
476,0.5602485696924684,41_left,11398_right,Van Cortlandt Park,New York,New York,US,,11399,Van Cortlandt Park Golf Course,  115 Van Cortlandt Park S,Bronx,New York,US,40.889105,-73.89230770919053
477,1.1459038996100082,42_left,17272_right,Mount Snow,West Dover,Vermont,US,,17273,Mount Snow Golf Club,  95 Country Club Rd,West Dover,Vermont,US,42.932933649999995,-72.87221405909199
478,-0.09370539496026996,43_left,15831_right,The Grove,Hertfordshire,England,UK,,15832,The Grove,  6200 Wildings Blvd,College Grove,Tennessee,US,35.817817500000004,-86.72974536360928
651,-0.004320286571897465,44_left,24443_right,Rondebosch Golf Club,Cape Town,,SA,,24444,Westlake Golf Club,"  Westlake Avenue off Boyes Drive, Lakeside",Cape Town,Western Cape,ZA,-34.090089,18.459291
857,-0.11510905034445999,45_left,23713_right,Belle Mare Plage,Belle Mare,,MU,,23714,Belle Mare Plage Resort - Links Course,  Belle Mare,Poste De Flacq,Flacq,MU,-20.1698818,57.74829122580037
891,-0.6261186774322738,46_left,14574_right,Four Season - Mauritius al Anahita,Beau Champ,,MU,,14575,Four Seasons Golf Club,  750 Slocum Ave,Exeter,Pennsylvania,US,41.32612605,-75.83009174570438
934,0.2748830267589437,47_left,11401_right,Marine Park,New York,New York,US,,11402,Marine Park Golf Course,  2880 Flatbush Ave,Brooklyn,New York,US,40.6070405879397,-73.91953933165829
935,0.7667040911912965,48_left,12045_right,Apawamis Club,Rye,New York,US,,12046,The Apawamis Club,  2 Club Rd,Rye,New York,US,40.9861091,-73.6887033
937,1.0192331750490908,49_left,11577_right,Bethpage State Park - Black Course,Bethpage,New York,US,,11578,Bethpage State Park Golf Course - The Black,  99 Quaker Meetinghouse Rd,Farmingdale,New York,US,40.742354,-73.45519
938,1.6460745044516285,50_left,12245_right,Christman's Windham House,Windham,New York,US,,12246,Christman's Windham House - Valley,  5742 Route 23,Windham,New York,US,42.304243,-74.280745
940,0.18268897546862012,51_left,11520_right,Douglaston,New York,New York,US,,11521,Douglaston Golf Club,  6320 Marathon Pkwy,Douglaston,New York,US,40.767441,-73.736864
941,0.8936778830266817,52_left,10644_right,Shadow Creek,Las Vegas,Nevada,US,,10645,Shadow Creek Golf Course,  3 Shadow Creek Drive,North Las Vegas,Nevada,US,36.25801161388945,-115.10649077597161
942,0.800781244814391,53_left,10627_right,Wynn,Las Vegas,Nevada,US,,10628,The Wynn Golf Club,  3145 Las Vegas Blvd South,Las Vegas,Nevada,US,36.1255,-115.1599
943,1.2155603438514393,54_left,10629_right,TPC Las Vegas,Las Vegas,Nevada,US,,10630,TPC Las Vegas,  9851 Canyon Run Drive,Las Vegas,Nevada,US,36.178814700000004,-115.31062551364022
945,0.9371710860172474,55_left,12246_right,Windham,Windham,New York,US,,12247,Windham Country Club,  Country Rd,Windham,New York,US,42.361745,-74.2375539
948,0.32737168435162933,56_left,2421_right,Stanwich Country Club,Greenwich,Connecticut,US,,2422,Tamarack Country Club,  55 Locust Rd,Greenwich,Connecticut,US,41.0967044,-73.71148158998065
952,0.016520595502662487,57_left,2530_right,The Griff,Stamford,Connecticut,US,,2531,Rockrimmon Country Club,  2949 Long Ridge Rd,Stamford,Connecticut,US,41.16477245,-73.59265651203262
1019,0.33170068714896306,58_left,27608_right,Jubilee Course,St. Andrews,Scotland,UK,,27609,St Andrews Links - The Jubilee Course,  Pilmour House,St Andrews,Fife,UK,56.358099,-2.8136
1020,0.13814776973746737,59_left,27606_right,Castle Course,St. Andrews,Scotland,UK,,27607,St Andrews Links - The Castle Course,  Pilmour House,St Andrews,Fife,UK,56.342194,-2.801751
1021,0.11079400504226691,60_left,27610_right,Old Course,St. Andrews,Scotland,UK,,27611,St Andrews Links - The Old Course,  Pilmour House,St Andrews,Fife,UK,56.342194,-2.801751
1022,-0.3034170694054128,61_left,27565_right,Burnt Island,Burntisland,Scotland,UK,,27566,Burntisland Golf Club,  Dodhead,Burntisland,Fife,UK,56.0681943,-3.222412882846033
1077,1.4081180493139272e-05,62_left,23265_right,Porto Elounda,Crete,,GR,,23266,Porto Elounda Golf Club,  Elounda S.A. Hotels & Resorts,Elounda,Crete,GR,35.241,25.7306
1078,0.17493695124779135,63_left,20536_right,Crete Golf Club,Crete,,GR,,20537,La Crete Golf Course,  Box 2349,La Crete,Alberta,CA,58.184058,-116.416765
1166,0.16215997101392457,64_left,12252_right,Forest Park,New York,New York,US,,12253,Forest Park Golf Course,  101 FOREST PARK DR,Woodhaven,New York,US,40.690508,-73.857326
1167,0.9519779596892708,65_left,12130_right,Silver Lake,Staten Island,New York,US,,12131,Silver Lake Golf Course,  915 Victory Blvd,Staten Island,New York,US,40.62237315,-74.09791687768126
1168,0.875789731100734,66_left,14743_right,Hideaway Hills,Kresgeville,Pennsylvania,US,,14744,Hideaway Hills Golf Club,  5590 Carney Road,Kresgeville,Pennsylvania,US,40.883709,-75.500561
1169,1.0463049771980433,67_left,10941_right,Skyway,Jersey City,New Jersey,US,,10942,Skyway Golf Course,  515 Duncan Ave,Jersey City,New Jersey,US,40.7326693629565,-74.09025847244041
1170,0.1707801315121945,68_left,11394_right,Mosholu,New York,New York,US,,11395,Mosholu Golf Course,  3545 Jerome Ave,Bronx,New York,US,40.882170925531916,-73.88200919148936
1171,0.3791334762661636,69_left,10582_right,Desert Willow,Hendersonville,Nevada,US,,10583,Desert Willow Golf Course,  2020 W Horizon Ridge Parkway,Henderson,Nevada,US,36.00848565,-115.0771265697613
1172,0.3753379117218107,70_left,10584_right,Reflection Bay,Hendersonville,Nevada,US,,10585,Reflection Bay Golf Club,  75 Monte Lago Blvd,Henderson,Nevada,US,36.109696,-114.925426
1173,1.03447684441473,71_left,17659_right,Golden Horseshoe - Green Course,Williamsburg,Virginia,US,,17660,The Golden Horseshoe Golf Club - Green,  651 S England St,Williamsburg,Virginia,US,37.25453307538709,-76.69682538243615
1275,0.6163903827620874,72_left,17659_right,Golden Horseshoe - Spotsman,Wiliamsburg,Virginia,US,,17660,The Golden Horseshoe Golf Club - Green,  651 S England St,Williamsburg,Virginia,US,37.25453307538709,-76.69682538243615
1278,0.9529364895436868,73_left,17658_right,Golden Horseshoe - Gold Course,Williamsbirg,Virginia,US,,17659,The Golden Horseshoe Golf Club - Gold,  401 S England St,Williamsburg,Virginia,US,37.267002,-76.699636
1379,1.048031117783459,74_left,17536_right,Prince William,Nokesville,Virginia,US,,17537,Prince William Golf Club,  14631 Vint Hill Rd,Nokesville,Virginia,US,38.7462277,-77.630269
1380,0.30481220271916154,75_left,23724_right,Malta Golf Club,Marsa,,MT,,23725,The Royal Malta Golf Club,  Aldo Moro Street,Marsa,Malta,MT,35.875599,14.495542
1381,0.6649226206179581,76_left,14139_right,Bandon Preserve,Bandon,Oregon,US,,14140,Bandon Dunes Golf Resort - Bandon Preserve,  57744 Round Lake Drive,Bandon,Oregon,US,43.106694,-124.378355
1382,0.6008403595353324,77_left,14142_right,Pacific Dunes,Bandon,Oregon,US,,14143,Bandon Dunes Golf Resort - Pacific Dunes,  57744 Round Lake Drive,Bandon,Oregon,US,43.106694,-124.378355
1383,0.7246110672883032,78_left,14138_right,Bandon Dunes,Bandon,Oregon,US,,14139,Bandon Dunes Golf Resort - Bandon Dunes,  57744 Round Lake Dr,Bandon,Oregon,US,43.1878,-124.3912
1389,0.6594256494666398,79_left,14140_right,Bandon Trails,Bandon,Oregon,US,,14141,Bandon Dunes Golf Resort - Bandon Trails,  57744 Round Lake Drive,Bandon,Oregon,US,43.1811,-124.384
1390,0.516560968795364,80_left,14141_right,Old Macdonald,Bandon,Oregon,US,,14142,Bandon Dunes Golf Resort - Old Macdonald,  57744 Round Lake Drive,Bandon,Oregon,US,43.2063,-124.3897
1391,0.3829211981703899,81_left,14252_right,Diamond Woods,Eugene,Oregon,US,,14253,Diamond Woods Golf Course,  96040 Territorial Highway,Monroe,Oregon,US,44.2713,-123.298
1392,1.0368819226916284,82_left,5205_right,Cog Hill Dubsdread,Lemont,Illinois,US,,5206,Cog Hill Golf & Country Club - Dubsdread,  12294 Archer Avenue,Lemont,Illinois,US,41.6648908,-87.961506
1393,1.0178493270685196,83_left,5579_right,Seven Bridges,Woodridge,Illinois,US,,5580,Seven Bridges Golf Club,  1 Mulligan Dr,Woodridge,Illinois,US,41.7661686,-88.07398779511404
1394,0.9758835663178725,84_left,11400_right,Dyker Beach,Brooklyn,New York,US,,11401,Dyker Beach Golf Course,  7th Ave and 86th St,Brooklyn,New York,US,40.618162,-74.020912
1395,0.7667712232014254,85_left,2566_right,Rolling Hills,Wilton,Connecticut,US,,2567,Rolling Hills Country Club,  333 Hurlbutt St,Wilton,Connecticut,US,41.210014,-73.41875263795772
1396,1.0056756204912585,86_left,17264_right,Stratton Mountain Golf Course,Stratton Mountain,Vermont,US,,17265,Stratton Mountain Golf Club - Lake/Mountain,  5 Village Lodge Rd,Stratton Mountain,Vermont,US,43.113829,-72.905092
1525,0.20510181814217537,87_left,14897_right,FDR Golf Club,Philadelphia,Pennsylvania,US,,14898,Bala Golf Club,  2200 Belmont Ave,Philadelphia,Pennsylvania,US,39.995419,-75.218421
1533,-0.12105439676669587,88_left,11996_right,Citi Field,Queens,New York,US,,11997,Quogue Field Club,  6 CLUB LN,Quogue,New York,US,40.816778549999995,-72.59243095005638
1732,-0.443284459794671,89_left,4896_right,Royal Blue at Baha Mar,New Providence,,BS,,4897,Bel-Mar Country Club,  7450 Logan Ave,Belvidere,Illinois,US,42.25117525,-88.78733845526861
1959,0.05175206923513008,90_left,3835_right,The Ocean Club,New Providence,,BS,,3836,The Ocean Club,  555 NE Ocean Blvd,Stuart,Florida,US,27.210603550000002,-80.1823832029095
2195,0.7956647336351316,91_left,12683_right,Pinehurst #2,Pinehurst,North Carolina,US,,12684,Pinehurst Resort - #2,  80 Carolina Vista Drive,Pinehurst,North Carolina,US,35.1926,-79.4639
2196,1.1534288092733074,92_left,12774_right,Mid Pines Club,Southern Pines,North Carolina,US,,12775,Mid Pines Inn & Golf Club,  1010 Midland Rd,Southern Pines,North Carolina,US,35.1917569,-79.3965685910872
2199,0.8067718896029776,93_left,12685_right,Pinehurst #4,Pinehurst,North Carolina,US,,12686,Pinehurst Resort - #4,  80 Carolina Vista Drive,Pinehurst,North Carolina,US,35.1877,-79.4651
2200,0.813800335113474,94_left,12689_right,Pinehurst #8,Pinehurst,North Carolina,US,,12690,Pinehurst Resort - #8,  100 Centennial Boulevard,Pinehurst,North Carolina,US,35.2172393,-79.4773277
2201,0.9547676708923505,95_left,12754_right,Tobacco Road,Sanford,North Carolina,US,,12755,Tobacco Road Golf Club,  442 Tobacco Rd,Sanford,North Carolina,US,35.3985925,-79.21239179249083
2202,1.1868844310595954,96_left,11089_right,River Vale Country Club,River Vale,New Jersey,US,,11090,River Vale Country Club,  660 RIVERVALE RD,River Vale,New Jersey,US,41.025965086956525,-74.00918656521739
2204,0.5558354216965516,97_left,11373_right,Sagamore Golf Club,Bolton,New York,US,,11374,The Sagamore Resort & Golf Club,  110 Sagamore Rd,Bolton Landing,New York,US,43.5557234,-73.6455597
2205,0.08164785347929505,98_left,11407_right,South Shore Golf Club,Staten Island,New York,US,,11408,South Park Golf Club,  2535 South Park Avenue,Buffalo,New York,US,42.83106553061224,-78.82404704081632
2262,0.7205041550619004,99_left,15015_right,Glen Brook Golf Club,Stroudsburg,Pennsylvania,US,,15016,Glen Brook Country Club,  1044 Hickory Valley Rd,Stroudsburg,Pennsylvania,US,40.970454,-75.22
2392,1.0932510937262987,100_left,2366_right,Mohegan Sun Golf Club,Baltic,Connecticut,US,,2367,Mohegan Sun Golf Club,  7 Dows Ln,Baltic,Connecticut,US,41.637854,-72.114609
2393,1.2430619499688302,101_left,2766_right,Legacy Golf Club at Lakewood Ranch,Bradenton,Florida,US,,2767,Legacy Golf Club at Lakewood Ranch,  8255 Legacy Blvd,Bradenton,Florida,US,27.3946847,-82.41603792502619
2394,0.8175575242013332,102_left,3610_right,Innisbrook Golf and Spa - Copperhead,Palm Harbor,Florida,US,,3611,Innisbrook Golf Resort - Copperhead,  36750 US Highway 19 North,Palm Harbor,Florida,US,28.112587,-82.755099
2507,0.7383556930542488,103_left,15864_right,Greystone Golf Club,Dickson,Tennessee,US,,15865,Greystone Golf Club,  2555 Hwy 70 East,Dickson,Tennessee,US,36.091839,-87.337802
2508,0.7664107965495095,104_left,16018_right,Gaylord Springs Golf Club,Nashville,Tennessee,US,,16019,Gaylord Springs Golf Links,  18 SPRINGHOUSE LN,Nashville,Tennessee,US,36.21909255,-86.68044584105937
2639,0.3985873154222111,105_left,16084_right,Legacy Golf Course,Springfield,Tennessee,US,,16085,The Legacy,  100 Raymond Floyd Dr,Springfield,Tennessee,US,36.484498,-86.84063
2767,0.833919422485676,106_left,15778_right,Montgomery Bell Golf Course,Burns,Tennessee,US,,15779,Montgomery Bell State Park Golf Course,  800 Hotel Ave,Burns,Tennessee,US,36.096486,-87.271712
2769,0.27807422015091693,107_left,16043_right,President's Reserve,Hermitage,Tennessee,US,,16044,Hermitage Golf Course - President's Reserve,  3939 Old Hickory Blvd,Old Hickory,Tennessee,US,36.22828435,-86.6400770998869
2770,0.746186687480197,108_left,15875_right,Cheekwood Golf Club,Franklin,Tennessee,US,,15876,Cheekwood Golf Club,  285 Spencer Creek Rd.,Franklin,Tennessee,US,35.950314196147446,-86.86760341959048
2771,0.9702143483403227,109_left,16075_right,Smyrna Golf Course,Smyrna,Tennessee,US,,16076,Smyrna Municipal Golf Course,  101 SAM RIDLEY PKY E,Smyrna,Tennessee,US,35.996471,-86.51489
2773,0.9417710515910893,110_left,15876_right,Franklin Bridge Golf Club,Franklin,Tennessee,US,,15877,Franklin Bridge Golf Club,  750 Riverview Dr,Franklin,Tennessee,US,35.893437750000004,-86.84227215321523
2774,1.1050053426811715,111_left,16019_right,Harpeth Hills Golf Course,Nashville,Tennessee,US,,16020,Harpeth Hills Golf Course,  2424 Old Hickory Blvd,Nashville,Tennessee,US,36.051210626479694,-86.88268100231234
2775,1.0357302613247898,112_left,15781_right,Henry Horton Golf Course,Chapel Hill,Tennessee,US,,15782,Henry Horton State Park Golf Course,  4358 Nashville Hwy.,Chapel Hill,Tennessee,US,35.596307,-86.698691
2777,1.4630080132698173,113_left,15390_right,Osprey Point at Kiawah Island,Kiawah Island,South Carolina,US,,15391,Osprey Point Golf Course at Kiawah Island Resort,  One Sanctuary Beach Dr,Kiawah Island,South Carolina,US,32.591556,-80.12312
2778,1.4750010925473827,114_left,15395_right,Turtle Point at Kiawah Island,Kiawah Island,South Carolina,US,,15396,Turtle Point Golf Course at Kiawah Island Resort,  1 Sanctuary Beach Drive,Kiawah Island,South Carolina,US,32.601291,-80.092228
2779,1.405679750951206,115_left,15389_right,Oak Point at Kiawah Island,Kiawah Island,South Carolina,US,,15390,Oak Point Golf Course at Kiawah Island Resort,  One Sanctuary Beach Drive,Kiawah Island,South Carolina,US,32.591556,-80.12312
2780,1.3533400227783061,116_left,15393_right,Ocean Course at Kiawah Island,Kiawah Island,South Carolina,US,,15394,The Ocean Course at Kiawah Island Resort,  1 Sanctuary Beach Dr,Kiawah Island,South Carolina,US,32.601291,-80.092228
2781,1.5183926922421471,117_left,15376_right,Cougar Point at Kiawah Island,Kiawah Island,South Carolina,US,,15377,Cougar Point Golf Club at Kiawah Island Resort,  One Sanctuary Beach Dr.,Kiawah Island,South Carolina,US,32.591556,-80.12312
2783,1.2595711042356093,118_left,10943_right,Galloping Hill Golf Course,Kenilworth,New Jersey,US,,10944,Galloping Hill Golf Course - Nine Hole,  3 Golf Dr,Kenilworth,New Jersey,US,40.6799507,-74.2788615
2785,1.0106882852938393,119_left,10919_right,Royce Brook East,Hillsborough,New Jersey,US,,10920,Royce Brook Golf Club - East,  201 Hamilton Rd,Hillsborough Township,New Jersey,US,40.50759730112973,-74.6046133522529
2787,0.39260424467459054,120_left,2447_right,Indian Springs Golf Club,Middletown,Connecticut,US,,2448,Indian Springs Golf Club,  132 Mack Road,Middlefield,Connecticut,US,41.513452650000005,-72.71953770583738
2788,0.9617220117775994,121_left,10909_right,Ballyowen Golf Club,Hamburg,New Jersey,US,,10910,Ballyowen Golf Club,  105 WHEATSWORTH RD,Hamburg,New Jersey,US,41.14416687843464,-74.58078550275889
2790,0.6447504513491137,122_left,11356_right,Clearview Park Golf Course,New York,New York,US,,11357,Clearview Park Golf Course,  202-12 Willets Point Blvd,Bayside,New York,US,40.78655045,-73.7895000241553
2791,1.355315302737805,123_left,11075_right,Sunset Valley Golf Course,Pompton Plains,New Jersey,US,,11076,Sunset Valley Golf Course,  47 W Sunset Rd,Pompton Plains,New Jersey,US,40.961782,-74.30379
2792,0.854574474256028,124_left,2615_right,Rock Manor,Wilmington,Delaware,US,,2616,Rock Manor Golf Club,  1319 CARRUTHERS LN,Wilmington,Delaware,US,39.770227,-75.538926
2793,1.2149963326779887,125_left,7480_right,Bulle Rock Golf Course,Havre de Grace,Maryland,US,,7481,Bulle Rock Golf Club,  320 Blenheim Lane,Havre de Grace,Maryland,US,39.545816,-76.132808
2922,1.2318963446930375,126_left,2404_right,Fairchild-Wheeler - Red Course,Fairfield,Connecticut,US,,2405,D. Fairchild Wheeler Golf Course - Red,  2390 EASTON TPKE,Fairfield,Connecticut,US,41.2160026,-73.24112887411034
2923,0.2746806136790773,127_left,10602_right,Desert Pines Golf Course,Las Vegas,Nevada,US,,10603,Eagle Crest Golf Course,  2203 Thomas Ryan Boulevard,Las Vegas,Nevada,US,36.20115575,-115.32755898082645
2968,1.1875063040224396,128_left,10597_right,Bali Hai Golf Club,Las Vegas,Nevada,US,,10598,Bali Hai Golf Club,  5160 S. Las Vegas Blvd.,Las Vegas,Nevada,US,36.082092,-115.172848
2969,1.6506941821619103,129_left,10610_right,Las Vegas Paiute Golf Resort - Wolf,Las Vegas,Nevada,US,,10611,Las Vegas Paiute Resort - Wolf Course,  10325 Nu-Wav Kaiv Blvd.,Las Vegas,Nevada,US,36.3536,-115.3182
3071,1.172281134468695,130_left,8493_right,Boyne Highlands - Heather,Harbor Springs,Michigan,US,,8494,Boyne Highlands Resort - The Heather,  1343 Heather Drive,Harbor Springs,Michigan,US,45.47324685,-84.9311535341906
3072,1.4128924341861286,131_left,8491_right,Boyne Highlands - Arthur Hills,Harbor Springs,Michigan,US,,8492,Boyne Highlands Resort - Arthur Hills,  250 Heather Drive,Harbor Springs,Michigan,US,45.47929115,-84.92522661590228
3073,1.244582831181273,132_left,2461_right,The Course at Yale,New Haven,Connecticut,US,,2462,The Course at Yale,  200 Conrad Dr,New Haven,Connecticut,US,41.31967365,-72.98564923258982
3074,0.7955314019021696,133_left,2564_right,Longshore Golf Club,Westport,Connecticut,US,,2565,Westport Longshore Golf Club,  260 COMPO RD S,Westport,Connecticut,US,41.1099383,-73.3688671
3075,0.35814049990936314,134_left,15479_right,The Legends Golf Resort: Parkland,Myrtle Beach,South Carolina,US,,15480,The Wizard Golf Course,  4601 Leeshire Blvd,Myrtle Beach,South Carolina,US,33.769323,-78.958201
3078,0.2397425767305352,135_left,15479_right,The Legends Golf Resort: Moorland,Mrytle Beach,South Carolina,US,,15480,The Wizard Golf Course,  4601 Leeshire Blvd,Myrtle Beach,South Carolina,US,33.769323,-78.958201
3081,0.23387286809534585,136_left,15479_right,The Legends Golf Resort: Heathlands,Mrytle Beach,South Carolina,US,,15480,The Wizard Golf Course,  4601 Leeshire Blvd,Myrtle Beach,South Carolina,US,33.769323,-78.958201
3084,0.12811441493760428,137_left,15480_right,Grand Dunes Resort Course,Mrytle Beach,South Carolina,US,,15481,Whispering Pines Golf Course,  900 Harellson Blvd,Myrtle Beach,South Carolina,US,33.678884,-78.915549
3092,0.3280364051161123,138_left,15480_right,Beachwood Golf Course,Mrytle Beach,South Carolina,US,,15481,Whispering Pines Golf Course,  900 Harellson Blvd,Myrtle Beach,South Carolina,US,33.678884,-78.915549
3099,0.6978920359153483,139_left,11681_right,Apple Greens Golf Course,Highland,New York,US,,11682,Apple Greens Golf Course - East & Two,  161 South St,Highland Twn,New York,US,44.980894,-73.448089
3105,1.0297673527023032,140_left,11878_right,Mohonk Golf Course,New Paltz,New York,US,,11879,Mohonk Mountain House Golf Course,  1000 MOUNTAIN REST RD,New Paltz,New York,US,41.778928,-74.124937
